City_ID,City,Lat,Lon,Temp,Humidity,Cloudiness,Windspeed,Country
0,Nikolskoye,59.7035,30.7861,33.26,80,90,6.71,RU
1,Qaanaaq,77.484,-69.3632,12.45,58,100,9.06,GL
2,Port Hedland,-20.3167,118.5667,78.8,83,9,13.8,AU
3,Lüderitz,-26.6481,15.1594,65.37,83,0,8.28,NA
4,Butaritari,3.0707,172.7902,81.14,77,54,14.38,KI
6,Yellowknife,62.456,-114.3525,-22.38,52,20,12.66,CA
7,Izumo,35.3667,132.7667,32.0,80,0,10.36,JP
8,Carnarvon,-24.8667,113.6333,73.4,83,40,12.66,AU
9,Vaini,-21.2,-175.2,80.6,69,75,3.44,TO
10,Departamento de Maldonado,-34.6667,-54.9167,78.39,69,40,18.41,UY
11,Saint Anthony,45.0205,-93.218,46.83,49,1,1.95,US
12,Hobart,-42.8794,147.3294,58.32,77,20,6.91,AU
13,‘Āhuimanu,21.4447,-157.8378,73.26,73,75,20.71,US
14,Busselton,-33.65,115.3333,59.27,87,19,1.01,AU
15,Arraial do Cabo,-22.9661,-42.0278,78.8,78,20,17.27,BR
16,Shadrinsk,56.0852,63.6335,5.94,94,100,13.29,RU
17,Albany,42.6001,-73.9662,42.78,69,68,1.01,US
19,Pevek,69.7008,170.3133,-26.14,94,7,3.6,RU
20,Bredasdorp,-34.5322,20.0403,69.8,78,54,11.5,ZA
21,Rikitea,-23.1203,-134.9692,76.59,75,16,17.45,PF
22,Leningradskiy,69.3833,178.4167,-13.11,96,100,7.52,RU
23,Saint Paul Harbor,57.79,-152.4072,39.2,87,90,3.44,US
24,Port Alfred,-33.5906,26.891,70.0,89,70,1.01,ZA
25,Guadix,37.2993,-3.1392,45.54,41,100,8.01,ES
26,Hong Kong,22.2855,114.1577,64.78,87,97,1.01,HK
27,Padang,-0.9492,100.3543,73.4,94,20,2.3,ID
28,Vieques,18.425,-65.8329,72.81,94,75,19.57,PR
29,Souillac,-20.5167,57.5167,78.8,78,40,10.36,MU
30,Mossamedes,-15.1961,12.1522,69.87,78,42,6.17,AO
31,Clyde River,70.4692,-68.5914,-11.2,84,1,6.91,CA
32,Okhotsk,59.3833,143.3,-10.17,83,0,5.77,RU
33,Cidreira,-30.1811,-50.2056,75.06,75,10,17.94,BR
34,Warangal,18.0,79.5833,73.6,18,0,6.02,IN
35,Kenai,60.5544,-151.2583,29.08,86,90,11.5,US
36,Longyearbyen,78.2186,15.6401,19.4,73,75,10.36,SJ
37,Goundi,9.3627,17.366,81.39,19,0,1.01,TD
38,Mataura,-46.1927,168.8643,60.01,94,100,3.0,NZ
39,Bauta,22.9828,-82.5464,86.0,42,20,11.5,CU
40,Kungurtug,50.5994,97.5228,-14.6,79,76,1.5,RU
41,Kavaratti,10.5669,72.642,81.54,75,0,10.74,IN
42,Luanda,-8.8368,13.2343,78.8,83,75,9.22,AO
43,Hermanus,-34.4187,19.2345,69.01,79,13,4.0,ZA
44,Kemijärvi,66.7131,27.4306,24.42,95,100,6.55,FI
45,Matara,5.9485,80.5353,74.1,87,12,2.86,LK
46,Bundaberg,-24.85,152.35,78.78,88,40,6.91,AU
47,Wakkanai,45.4094,141.6739,32.74,91,100,37.4,JP
48,Noumea,-22.2763,166.4572,80.22,61,0,2.3,NC
49,Luebo,-5.35,21.4167,73.38,83,79,1.34,CD
50,Agüimes,27.9054,-15.4461,60.57,59,20,11.5,ES
51,Kang,-23.6752,22.7876,68.22,67,0,6.96,BW
52,Bembèrèkè,10.2283,2.6634,76.24,17,13,4.59,BJ
53,Raudeberg,61.9875,5.1352,46.0,90,58,20.36,NO
54,Lagoa,39.05,-27.9833,59.05,86,94,16.06,PT
55,Saint-Philippe,-21.3585,55.7679,75.13,73,75,4.61,RE
56,Hutchinson,38.0608,-97.9298,58.14,82,90,21.85,US
57,Bluff,-46.6,168.3333,60.01,94,99,3.0,NZ
58,Tevriz,57.509,72.4042,-22.09,96,78,5.64,RU
59,Tuktoyaktuk,69.4541,-133.0374,-27.4,68,40,4.61,CA
60,Umm Kaddadah,13.6017,26.6876,70.47,20,3,12.26,SD
61,Avarua,-21.2078,-159.775,80.6,89,75,23.02,CK
62,Severo-Kuril'sk,50.6789,156.125,24.73,94,93,28.41,RU
63,Yasothon,15.75,104.1333,78.01,67,67,9.31,TH
64,La Palma,33.8464,-118.0467,66.67,63,1,11.5,US
65,Necochea,-38.5473,-58.7368,87.01,36,0,11.99,AR
66,Manggar,-2.8833,108.2667,76.71,81,99,4.43,ID
67,Julfa,38.9558,45.6308,32.0,69,0,9.22,AZ
68,Punta Arenas,-53.15,-70.9167,78.8,29,0,14.97,CL
69,San Policarpo,12.1791,125.5072,79.63,85,35,12.73,PH
70,Ola,59.5833,151.2833,-2.58,83,87,9.95,RU
71,Port Lincoln,-34.7333,135.8667,62.51,78,57,7.9,AU
72,Lorengau,-2.0226,147.2712,82.54,79,86,9.93,PG
73,Kapaa,22.0752,-159.319,75.29,69,75,19.57,US
74,Saint George,37.1041,-113.5841,51.53,12,1,9.22,US
75,Hithadhoo,-0.6,73.0833,82.56,63,89,6.51,MV
76,Ilulissat,69.2167,-51.1,12.2,79,75,11.5,GL
77,Talaya,61.3833,152.75,-27.83,82,79,1.14,RU
78,Mar del Plata,-38.0023,-57.5575,70.11,88,75,18.41,AR
79,Mount Gambier,-37.8333,140.7667,50.0,93,100,3.11,AU
80,Masingbi,8.7833,-11.95,79.97,70,1,4.5,SL
81,Halifax,44.6453,-63.5724,33.26,75,99,18.41,CA
82,Ugoofaaru,5.6667,73.0,81.91,72,27,4.9,MV
83,Tekeli,44.83,78.8239,15.84,86,100,8.3,KZ
84,Šipkovica,42.035,20.9156,47.32,50,40,17.27,MK
85,Andenes,69.3143,16.1194,41.34,75,90,20.71,NO
86,Yar-Sale,66.8333,70.8333,-15.47,89,4,8.93,RU
87,Geraldton,-28.7667,114.6,62.6,82,0,9.28,AU
88,Cayenne,4.9333,-52.3333,80.6,78,75,11.5,GF
89,Cherskiy,68.75,161.3,-27.94,85,52,0.98,RU
90,Tsumeb,-19.2333,17.7167,66.2,82,3,5.75,NA
91,Upernavik,72.7868,-56.1549,6.01,93,100,24.16,GL
92,Kŭlob,37.9145,69.783,28.4,93,0,4.47,TJ
93,Uzunovo,54.5386,38.6173,18.61,97,79,6.93,RU
94,Mangai,-4.05,19.5333,72.9,88,67,1.74,CD
95,Pisco,-13.7,-76.2167,75.11,78,0,6.91,PE
96,Hamilton,39.1834,-84.5333,58.41,51,75,3.22,US
97,Cedar City,37.6775,-113.0619,33.46,21,90,12.59,US
98,Ushuaia,-54.8,-68.3,78.8,19,0,13.8,AR
99,Port Elizabeth,-33.918,25.5701,69.8,83,90,12.66,ZA
100,Atuona,-9.8,-139.0333,80.74,76,3,13.22,PF
101,Vardø,70.3705,31.1107,30.29,96,100,15.68,NO
102,Hilo,19.7297,-155.09,68.76,83,90,6.33,US
103,Al Bardīyah,31.7561,25.0865,57.33,77,0,10.22,LY
104,Whitianga,-36.8333,175.7,69.98,63,82,7.54,NZ
105,High Level,58.5169,-117.136,1.4,60,20,3.44,CA
106,Champerico,14.3,-91.9167,89.6,62,40,11.5,GT
107,Winneba,5.3511,-0.6231,82.4,83,20,5.75,GH
108,Rawlins,41.7911,-107.2387,26.6,50,90,23.02,US
109,Cape Town,-33.9258,18.4232,71.13,64,0,12.66,ZA
110,Carson City,39.1638,-119.7674,42.35,22,1,16.11,US
111,Kifrī,34.6959,44.9661,51.21,49,0,2.24,IQ
112,Arlit,18.7369,7.3853,74.01,17,3,14.16,NE
113,Havøysund,70.9963,24.6622,35.6,93,75,9.22,NO
114,Vila,42.0304,-8.1588,51.01,79,95,3.0,PT
115,Olafsvik,64.8945,-23.7142,39.69,77,90,39.3,IS
116,Salalah,17.0151,54.0924,75.2,69,0,2.3,OM
117,Ribeira Grande,38.5167,-28.7,60.8,94,75,11.5,PT
118,Puerto Ayora,-0.7393,-90.3518,81.52,78,40,11.5,EC
119,Ponta do Sol,32.6667,-17.1,51.93,66,42,1.01,PT
120,Naryan-Mar,67.6713,53.087,5.02,94,100,11.1,RU
121,Eureka,40.8021,-124.1637,54.07,64,30,11.99,US
122,Ancud,-41.8697,-73.8203,62.33,72,90,6.91,CL
123,Dawlatabad,36.4141,64.9053,34.88,80,0,7.38,AF
124,Faanui,-16.4833,-151.75,83.25,70,20,9.22,PF
125,Kalianget,-7.05,113.9333,78.85,79,98,2.71,ID
126,New Norfolk,-42.7826,147.0587,57.18,75,57,1.23,AU
127,Bethel,41.3712,-73.414,44.89,92,100,4.0,US
128,Abadan,38.0507,58.2056,35.6,51,0,2.3,TM
129,Mananara,-16.1667,49.7667,76.15,92,26,4.36,MG
130,Northam,51.0333,-4.2167,40.71,72,1,1.99,GB
131,Narsaq,60.9167,-46.05,23.0,54,0,25.32,GL
132,Kruisfontein,-34.0033,24.7314,70.0,82,44,1.99,ZA
133,Shalya,57.2471,58.7298,0.19,91,100,11.01,RU
134,Marsh Harbour,26.5412,-77.0636,76.14,80,21,16.15,BS
135,Honningsvåg,70.9821,25.9704,32.36,98,100,16.91,NO
136,Khatanga,71.9667,102.5,-36.89,90,12,1.88,RU
137,Umluj,25.0213,37.2685,70.54,49,0,4.97,SA
138,Bukama,-9.2,25.85,69.53,94,89,1.23,CD
139,Pundaguitan,6.3711,126.1689,81.0,79,100,6.02,PH
140,Nanortalik,60.1432,-45.2371,21.78,89,57,19.98,GL
141,Flinders,-34.5833,150.8552,69.01,88,26,3.0,AU
142,Barrow,71.2906,-156.7887,-14.8,70,90,6.91,US
143,Marawi,7.9986,124.2928,73.99,89,63,5.01,PH
144,Careiro da Várzea,-3.2003,-59.8119,83.28,78,40,4.61,BR
145,Huarmey,-10.0681,-78.1522,76.17,60,27,7.18,PE
146,Torbay,47.6666,-52.7314,23.18,50,75,10.36,CA
147,Aklavik,68.2191,-135.0107,-23.8,69,1,6.91,CA
148,Bariloche,-41.1456,-71.3082,79.79,22,75,21.85,AR
149,Waingapu,-9.6567,120.2641,76.75,82,100,6.38,ID
150,Teya,60.3778,92.6267,-15.79,95,100,5.99,RU
151,Beira,-19.8436,34.8389,78.8,83,90,16.11,MZ
152,Provideniya,64.3833,-173.3,-2.2,65,0,4.47,RU
153,Finnsnes,69.2296,17.9811,39.2,87,90,8.05,NO
154,Pauini,-7.7136,-66.9764,80.91,82,98,0.81,BR
155,Caucaia,-3.7361,-38.6531,82.2,74,20,6.91,BR
156,Dixon,38.4455,-121.8233,63.07,22,1,14.97,US
157,Chui,-33.6971,-53.4616,71.91,79,0,12.68,UY
158,Port Hardy,50.6996,-127.4199,39.2,87,90,6.91,CA
159,Lebu,-37.6167,-73.65,60.33,77,13,18.66,CL
160,Okato,-39.2,173.8833,66.47,76,99,4.0,NZ
161,Iquique,-20.2208,-70.1431,75.2,64,0,17.27,CL
162,Boddam,57.4667,-1.7833,40.84,93,0,2.3,GB
163,Katsuura,35.1333,140.3,36.34,55,20,8.05,JP
164,Kahului,20.8947,-156.47,73.36,57,75,24.16,US
165,Itoman,26.1247,127.6694,67.57,83,40,9.22,JP
166,Korla,41.7597,86.1469,29.08,77,100,6.08,CN
167,Samarai,-10.6167,150.6667,82.09,79,93,12.01,PG
168,Ubari,26.5921,12.7805,53.6,42,0,7.14,LY
169,Elliot Lake,46.3834,-82.6331,39.2,70,1,10.36,CA
170,Castro,-24.7911,-50.0119,63.3,93,79,11.25,BR
171,Kamaishi,39.2667,141.8833,29.97,87,0,5.61,JP
172,Gospić,44.5461,15.3747,50.0,40,0,14.97,HR
173,Faya,18.3851,42.4509,56.3,54,0,8.05,SA
174,Beloha,-25.1667,45.05,74.44,93,100,3.58,MG
175,Mwinilunga,-11.7358,24.4293,62.17,95,52,2.91,ZM
176,Kaitangata,-46.2817,169.8464,61.54,83,98,4.12,NZ
177,George Town,5.4112,100.3354,75.51,88,20,2.3,MY
178,Kavieng,-2.5744,150.7967,82.94,77,100,9.06,PG
179,Khokhlovo,59.1492,37.3998,23.0,93,90,4.29,RU
180,Vostok,46.4856,135.8833,15.76,96,100,7.27,RU
181,Deer Lake,49.1667,-57.4316,26.31,68,75,18.41,CA
182,Grand-Lahou,5.1367,-5.0242,79.12,86,93,8.08,CI
183,Saint-Pierre,-21.3393,55.4781,75.29,73,75,4.61,RE
184,Bambous Virieux,-20.3428,57.7575,79.38,78,40,10.36,MU
185,Khovd,48.0056,91.6419,4.17,61,3,1.86,MN
186,Klaksvík,62.2266,-6.589,46.4,87,90,13.8,FO
187,Darhan,49.4867,105.9228,-7.51,84,51,0.67,MN
188,Dingle,10.9995,122.6711,75.87,90,0,5.75,PH
189,Tungor,53.3808,142.9564,5.45,95,100,12.93,RU
190,Broken Hill,-31.95,141.4333,71.6,28,0,11.5,AU
191,Jamestown,42.097,-79.2353,36.95,89,90,9.62,US
192,Aldan,58.6031,125.3894,-14.17,89,100,11.99,RU
193,Port-Gentil,-0.7193,8.7815,80.6,83,20,6.91,GA
194,Baruun-Urt,46.6806,113.2792,-5.84,87,22,7.38,MN
195,Río Cuarto,-33.1307,-64.3499,80.6,54,40,14.97,AR
196,Fortuna,40.5982,-124.1573,51.76,66,40,18.41,US
197,Holland,42.7875,-86.1089,43.52,70,1,6.91,US
198,Aspindza,41.5739,43.2483,25.9,87,6,4.5,GE
199,Nishihara,26.1842,127.7558,67.12,72,40,3.44,JP
200,Sept-Îles,50.2001,-66.3821,30.38,55,75,6.91,CA
201,Adrar,20.5022,-10.0711,62.06,29,0,10.18,MR
202,Plettenberg Bay,-34.0527,23.3716,66.22,86,1,6.69,ZA
203,Derbent,42.0678,48.2899,43.14,73,0,2.53,RU
204,Sitka,57.0531,-135.33,41.0,87,90,10.36,US
205,Coyhaique,-45.5752,-72.0662,62.65,66,92,8.28,CL
206,Richards Bay,-28.783,32.0377,70.59,79,78,2.01,ZA
207,Hokitika,-42.7167,170.9667,68.85,60,100,4.14,NZ
208,Buchanan,5.8808,-10.0467,78.8,94,75,5.39,LR
209,Gīdolē,5.65,37.3667,66.36,48,55,0.67,ET
210,Câmara de Lobos,32.6333,-16.9667,52.79,72,40,12.66,PT
211,Bharūch,21.7,72.9667,73.08,47,0,3.44,IN
212,Ushtobe,45.2514,77.9838,23.74,89,97,4.45,KZ
213,Santiago,-33.4569,-70.6483,87.1,33,0,9.22,CL
214,Saldanha,-33.0117,17.9442,77.0,47,0,8.05,ZA
215,Belyy Yar,53.6039,91.3903,-5.8,71,100,5.79,RU
216,Tahoua,14.8888,5.2692,78.8,11,0,13.8,NE
218,Suntar,62.1444,117.6319,-26.09,84,55,5.79,RU
219,Bandarbeyla,9.4942,50.8122,75.88,78,29,13.49,SO
220,Santa Isabel Rio Negro,-0.4139,-65.0192,72.54,97,100,2.73,BR
221,Pirogovo,56.7796,53.1495,10.99,86,100,3.0,RU
222,La Ronge,55.1001,-105.2842,-0.4,71,100,3.44,CA
223,Sarai Naurang,32.8259,70.7814,56.73,38,0,2.95,PK
224,Sūrandai,8.9667,77.4,74.23,71,0,1.79,IN
225,Dikson,73.5069,80.5464,-13.13,89,100,19.57,RU
226,Spirit River,55.7833,-118.8361,12.36,85,96,8.05,CA
227,Aguas Verdes,-3.4814,-80.245,84.2,70,90,4.61,PE
228,General Roca,-39.0333,-67.5833,93.2,36,0,9.22,AR
229,Laas,46.6166,10.7002,42.22,86,0,6.91,IT
230,Baní,18.2833,-70.3333,83.26,78,75,14.79,DO
231,Zeya,53.75,127.2667,-8.77,77,0,8.68,RU
232,Preobrazheniye,42.9019,133.9064,30.0,90,94,11.7,RU
233,Sarkand,45.41,79.9186,16.81,73,100,6.29,KZ
234,Nouadhibou,20.931,-17.0347,62.6,63,0,20.71,MR
235,Abū Zabad,12.35,29.25,70.9,14,0,10.2,SD
236,Rio Grande,-32.035,-52.0986,73.98,75,0,18.37,BR
237,Lavrentiya,65.5833,-171.0,-14.58,82,0,11.05,RU
238,Arman',59.7,150.1667,-6.0,81,47,8.52,RU
239,Bourail,-21.5667,165.4833,78.62,66,100,4.27,NC
240,Pāvilosta,56.8879,21.1859,37.4,87,90,6.91,LV
241,Atambua,-9.1061,124.8925,71.53,88,67,3.36,ID
242,Bālāghāt,21.8,80.1833,68.4,26,0,2.37,IN
243,Río Gallegos,-51.6226,-69.2181,84.2,24,40,5.75,AR
244,Vrangel',42.7297,133.0839,33.73,90,100,8.03,RU
245,Heinola,61.2056,26.0381,31.39,86,90,6.91,FI
246,Isangel,-19.55,169.2667,80.6,83,20,12.73,VU
247,Kurāra,25.9833,79.9833,71.35,31,13,1.9,IN
248,Östersund,63.1792,14.6357,38.21,87,79,27.63,SE
249,Iqaluit,63.7506,-68.5145,-23.4,62,20,6.08,CA
250,Susa,32.1942,48.2436,57.72,43,0,6.42,IR
251,Finsterwalde,51.6333,13.7167,35.29,81,75,3.44,DE
252,Kawalu,-7.3817,108.2082,71.94,90,95,1.41,ID
253,Lago da Pedra,-4.3333,-45.1667,73.83,91,100,1.03,BR
254,Usakos,-22.0,15.6,77.92,45,71,1.39,NA
255,Wajima,37.4,136.9,39.33,66,0,10.07,JP
256,Jurm,36.8648,70.8342,22.77,69,0,6.42,AF
257,Muros,42.7762,-9.0603,51.62,76,18,5.01,ES
258,Mahébourg,-20.4081,57.7,78.8,78,40,10.36,MU
259,Lata,40.1629,-8.3327,55.71,87,0,2.3,PT
260,Hauterive,46.0901,3.4459,39.78,57,90,6.91,FR
261,Bonavista,48.6499,-53.1147,20.41,68,82,5.75,CA
262,Maningrida,-12.0667,134.2667,79.03,84,100,3.36,AU
263,Bontang,0.1333,117.5,76.93,85,79,2.73,ID
264,Bilma,18.6853,12.9164,66.92,22,0,12.91,NE
265,Norman Wells,65.282,-126.8329,-18.4,63,20,10.36,CA
266,Talnakh,69.4865,88.3972,-31.45,91,0,4.99,RU
267,Biak,-0.9131,122.8766,77.22,78,99,3.2,ID
268,Port Moresby,-9.4431,147.1797,75.2,94,40,11.5,PG
269,Kaeo,-35.1,173.7833,72.0,77,14,5.99,NZ
270,Ndélé,8.4109,20.6473,76.93,21,14,5.21,CF
271,Esperance,-33.8667,121.9,60.8,94,90,5.75,AU
272,Midland,31.9974,-102.0779,78.33,9,1,13.8,US
273,Batagay,67.6333,134.6333,-36.53,81,0,1.34,RU
274,Poli,-3.3333,36.8,66.06,72,20,11.5,TZ
275,Port Hawkesbury,45.6169,-61.3485,28.13,59,1,13.8,CA
276,Chipata,-13.6333,32.65,64.2,96,88,2.95,ZM
277,Shimoda,34.6667,138.95,32.0,73,95,11.74,JP
278,Xichang,27.8964,102.2634,53.67,61,87,3.83,CN
279,Nouakchott,18.0858,-15.9785,68.0,64,0,14.97,MR
282,Berlevåg,70.8578,29.0864,29.01,93,100,9.51,NO
283,Acaraú,-2.8856,-40.12,78.89,80,23,11.05,BR
284,Bubaque,11.2833,-15.8333,78.35,60,0,14.41,GW
285,Evans,33.5337,-82.1307,78.3,54,72,1.01,US
286,Charters Towers,-20.1,146.2667,73.98,87,100,12.5,AU
287,Fort Nelson,58.8053,-122.7002,8.6,66,75,4.61,CA
288,Jos,9.9167,8.9,67.75,25,0,5.61,NG
289,Laguna,38.421,-121.4238,62.2,25,1,19.57,US
290,Lae,-6.7221,146.9847,77.0,88,75,11.5,PG
291,Salinas,36.6777,-121.6555,57.52,39,1,13.8,US
292,Am Timan,11.0297,20.2827,78.15,19,0,4.45,TD
293,Takoradze,4.8845,-1.7554,79.81,85,1,6.53,GH
294,Walvis Bay,-22.9575,14.5053,64.67,77,2,3.44,NA
295,Wad Medani,14.4012,33.5199,73.09,19,12,12.28,SD
296,Mingshui,36.7167,117.5,47.5,68,96,8.16,CN
297,Novoseleznëvo,55.6821,69.2056,-5.13,92,100,10.89,RU
298,Vao,-22.6667,167.4833,77.34,74,95,12.73,NC
299,Kumul,42.8,93.45,24.1,31,79,4.56,CN
300,Benguela,-12.5763,13.4055,75.58,79,82,4.36,AO
301,Nuuk,64.1835,-51.7216,14.0,92,90,2.3,GL
302,Troitskoye,52.9821,84.6757,-9.15,97,90,5.1,RU
303,Caravelas,-17.7125,-39.2481,76.71,81,75,6.96,BR
304,Brae,60.3964,-1.353,44.6,93,90,17.27,GB
305,Pimentel,-6.8367,-79.9342,78.51,47,0,18.41,PE
306,Cabo San Lucas,22.8909,-109.9124,73.35,56,90,6.91,MX
307,Sola,-13.8833,167.55,86.0,74,75,5.75,VU
308,Vilhena,-12.7406,-60.1458,86.0,58,75,10.36,BR
309,Mapimí,25.8167,-103.85,85.48,10,90,7.4,MX
310,Beidao,34.5686,105.8933,32.36,79,100,2.17,CN
311,Grindavik,63.8424,-22.4338,41.0,75,75,32.21,IS
312,Sayyan,15.1718,44.3244,58.19,46,4,2.8,YE
313,Pedernales,18.0384,-71.744,84.02,48,68,18.45,DO
314,Pachmarhi,22.4667,78.4333,64.74,28,8,2.48,IN
315,San Joaquin,37.9333,-121.3011,62.42,27,1,21.85,US
316,Nortelândia,-14.4547,-56.8028,77.67,89,96,2.24,BR
317,Beringovskiy,63.05,179.3167,-18.71,78,0,9.42,RU
318,Mountain Home,43.133,-115.6912,37.4,48,40,23.02,US
319,Paragominas,-2.9667,-47.4833,74.88,95,57,2.73,BR
320,Shangzhi,45.2167,127.9667,22.14,88,93,4.59,CN
321,Chokurdakh,70.6333,147.9167,-24.57,87,85,2.98,RU
322,La Rioja,-29.4111,-66.8507,90.27,35,6,5.39,AR
323,Bathsheba,13.2167,-59.5167,80.6,57,40,25.32,BB
324,Prymors'k,46.7348,36.3443,38.26,88,100,9.17,UA
325,Ginir,7.1333,40.7,61.92,38,9,2.37,ET
326,Bazarnye Mataki,54.8833,49.9333,10.65,96,100,12.97,RU
327,West Bay,19.3667,-81.4167,83.12,58,40,14.97,KY
328,Ibrā’,22.6906,58.5334,58.86,87,0,0.65,OM
329,Los Llanos de Aridane,28.6585,-17.9182,56.12,59,0,19.57,ES
330,San Patricio,28.017,-97.5169,75.42,83,90,20.71,US
331,Mogadishu,2.0371,45.3438,77.77,83,2,20.89,SO
332,Ambanja,-13.6833,48.45,74.62,89,100,3.87,MG
333,Kondinskoye,59.6481,67.41,-18.13,88,44,7.38,RU
334,São Miguel do Araguaia,-13.275,-50.1628,73.63,95,81,4.21,BR
335,Escárcega,18.6089,-90.7454,91.85,35,46,7.83,MX
336,Nkhata Bay,-11.6066,34.2907,73.4,82,88,4.07,MW
337,Nizhnyaya Tura,58.6293,59.8118,-5.24,91,100,6.67,RU
338,Porbandar,21.6422,69.6093,71.51,89,0,6.38,IN
339,Nome,64.5011,-165.4064,-5.8,65,1,4.43,US
340,East London,-33.0153,27.9116,70.93,83,70,13.04,ZA
341,Udachny,66.4167,112.4,-26.18,80,100,2.66,RU
342,Cavalcante,-13.7975,-47.4583,68.99,91,93,2.48,BR
343,Lubango,-14.9172,13.4925,60.71,69,0,1.16,AO
345,Stavern,59.0,10.0333,39.24,65,0,6.91,NO
346,Menongue,-14.6585,17.691,62.89,90,63,3.2,AO
347,Assiniboia,49.6334,-105.9845,-0.4,60,100,10.36,CA
348,Pochutla,15.7432,-96.4661,86.0,58,40,11.5,MX
349,Skjervøy,70.0311,20.9714,39.2,91,97,21.7,NO
350,Jayuya,18.2186,-66.5916,72.21,89,79,8.99,PR
351,Sheridan,44.8333,-106.9173,26.15,80,90,16.11,US
352,Bridgetown,13.1,-59.6167,80.6,57,40,25.32,BB
353,Zhigansk,66.7697,123.3711,-26.57,83,100,10.94,RU
354,Saskylakh,71.9167,114.0833,-29.67,77,31,1.68,RU
355,At-Bashi,41.1702,75.8106,0.7,79,63,1.88,KG
356,San Cristobal,7.7669,-72.225,73.69,72,99,1.34,VE
357,Torquay,50.4638,-3.5143,40.1,86,0,4.0,GB
358,Mayumba,-3.432,10.6554,79.59,85,96,6.67,GA
359,Pizarro,4.9533,-77.366,80.8,82,89,4.09,CO
360,College,64.8569,-147.8028,12.33,85,90,4.21,US
361,Inhambane,-23.865,35.3833,72.7,77,92,10.8,MZ
362,Busembatia,0.7697,33.6131,69.19,74,25,1.59,UG
363,Camaçari,-12.6975,-38.3242,82.4,69,40,11.5,BR
364,Dahuk,36.8695,42.994,44.94,58,0,3.2,IQ
365,Bowen,-20.0167,148.2333,77.0,94,90,10.36,AU
366,Margate,51.3813,1.3862,41.99,86,0,9.44,GB
367,Sittwe,20.15,92.9,68.22,91,8,5.3,MM
368,Santa Cruz de Barahona,18.2085,-71.1008,84.2,70,40,20.71,DO
369,Marsá Maţrūḩ,31.3525,27.2453,53.6,82,0,4.61,EG
370,Massakory,12.996,15.7293,77.52,16,0,12.71,TD
371,Najrān,17.4924,44.1277,64.4,36,0,4.23,SA
372,Alta Floresta,-9.8756,-56.0861,73.22,97,77,1.23,BR
373,Araouane,18.9048,-3.5265,67.86,21,0,5.64,ML
374,Pontes e Lacerda,-15.2261,-59.3353,79.7,85,67,3.29,BR
375,Burns Lake,54.2331,-125.7533,21.2,86,100,1.14,CA
376,Sioux Lookout,50.1001,-91.917,10.4,56,40,2.3,CA
377,Palmas,-10.2128,-48.3603,78.8,78,40,5.75,BR
379,Vila Velha,-20.3297,-40.2925,78.8,78,40,5.75,BR
380,Asău,46.4333,26.4,41.0,70,90,16.11,RO
381,Hambantota,6.1241,81.1185,77.09,84,41,2.39,LK
382,Topolobampo,25.6,-109.05,80.49,34,90,16.11,MX
383,Antofagasta,-23.65,-70.4,71.6,73,20,13.8,CL
384,Zhuhai,22.2769,113.5678,65.34,82,40,9.22,CN
385,Saint-Augustin,51.226,-58.6502,22.32,95,93,16.06,CA
386,Emba,48.8264,58.1442,35.02,98,100,15.3,KZ
387,Lompoc,34.6391,-120.4579,61.79,42,20,14.97,US
388,Gravdal,68.1214,13.5031,41.72,84,88,20.47,NO
389,Ayagoz,47.9714,80.4392,0.95,90,99,5.46,KZ
390,Sibanicú,21.235,-77.5264,84.2,54,20,23.02,CU
391,Kaka,37.3482,59.6143,38.3,29,0,6.8,TM
392,Kajiado,-1.8524,36.7768,62.6,63,0,11.9,KE
393,Kununurra,-15.7667,128.7333,75.2,62,0,3.44,AU
394,Coquimbo,-29.9533,-71.3436,64.4,77,75,13.8,CL
395,Thompson,55.7435,-97.8558,-4.0,38,75,8.05,CA
396,Bonthe,7.5264,-12.505,79.0,83,0,7.76,SL
397,Harper,4.375,-7.7169,78.39,88,71,6.02,LR
398,Tuatapere,-46.1333,167.6833,60.01,94,87,3.0,NZ
399,Svetlaya,46.5389,138.3297,25.34,67,100,13.87,RU
400,Camacha,33.0833,-16.3333,59.0,77,40,13.8,PT
401,Poltavka,54.3663,71.7632,-6.07,90,100,12.57,RU
402,Kismayo,-0.3582,42.5454,77.34,88,0,12.93,SO
403,Karpathos,35.507,27.2132,57.2,77,10,13.8,GR
404,Yakeshi,49.2833,120.7333,-8.66,89,64,5.97,CN
405,Nyagan,62.1406,65.3936,-17.39,88,0,4.41,RU
406,Caucayá,-0.1934,-74.7819,80.73,91,93,2.91,CO
407,Dunedin,-45.8742,170.5036,59.11,93,98,1.99,NZ
408,Kangaba,11.9333,-8.4167,78.67,16,2,3.94,ML
409,Mgachi,51.05,142.2667,20.32,96,100,7.38,RU
410,Safi,32.2994,-9.2372,57.7,79,100,15.03,MA
411,Tessalit,20.1986,1.0114,61.84,10,0,2.68,ML
412,Constitución,-35.3333,-72.4167,67.73,58,4,17.25,CL
413,Avallon,47.4833,3.9,39.0,72,0,3.0,FR
414,Ostrovnoy,68.0531,39.5131,21.47,96,96,7.7,RU
415,Hurghada,27.2574,33.8129,64.4,42,0,14.97,EG
416,Keti Bandar,24.1447,67.4497,72.54,78,0,9.19,PK
418,Nara,34.6851,135.8049,37.02,75,40,3.44,JP
419,Hervey Bay,-25.2986,152.8535,80.06,88,40,6.91,AU
420,Moree,-29.4667,149.85,73.4,83,1,10.36,AU
421,Ribas do Rio Pardo,-20.4431,-53.7592,75.56,84,14,7.38,BR
422,Dwārka,22.2394,68.9678,73.83,89,0,9.1,IN
423,Petatlán,17.5167,-101.2667,84.2,70,1,5.75,MX
424,Yarkovo,57.4028,67.0786,-6.47,91,100,8.75,RU
425,Sanger,36.708,-119.556,62.24,27,20,9.22,US
426,Barcelona,41.3888,2.159,55.04,82,20,1.14,ES
427,Kiruna,67.8557,20.2251,30.2,86,20,12.66,SE
428,Kalawit,8.0667,122.5167,77.65,85,0,4.88,PH
429,Mahibadhoo,3.7833,72.9667,81.3,69,62,4.88,MV
430,Mezen',65.8522,44.24,10.0,96,72,3.44,RU
431,Dryden,49.7833,-92.7503,10.4,56,20,8.05,CA
432,Novy Urengoy,66.0833,76.6333,-27.72,85,38,6.11,RU
433,Yenagoa,4.9247,6.2642,79.86,82,23,5.93,NG
434,Gilgit,35.9221,74.3087,36.97,60,0,3.2,PK
435,Jinchang,38.4953,102.1739,24.91,31,100,3.83,CN
436,Karratha,-20.7377,116.8463,78.73,67,31,14.12,AU
437,Hay River,60.8156,-115.7999,-15.68,58,74,4.61,CA
438,Warrington,53.3925,-2.5802,38.71,81,1,2.3,GB
439,Vanimo,-2.6741,141.3028,78.4,88,96,4.43,PG
440,Daru,-9.0763,143.2092,79.45,87,100,12.12,PG
441,Luangwa,-15.6167,30.4167,71.58,96,99,5.61,ZM
443,Rawson,-43.3002,-65.1023,85.19,26,72,24.58,AR
444,Bengkulu,-3.8004,102.2655,75.96,76,1,4.52,ID
445,Ajdabiya,30.7554,20.2263,57.92,74,0,7.99,LY
446,Prince Rupert,54.3161,-130.3201,37.27,93,90,16.11,CA
447,Fairbanks,64.8378,-147.7164,12.45,85,90,3.85,US
448,Wagar,16.1525,36.2032,67.77,54,0,8.81,SD
449,Novoagansk,61.9449,76.6625,-17.48,89,89,5.06,RU
450,Beaufort,5.3473,115.7455,78.4,89,20,5.75,MY
451,Half Moon Bay,37.4636,-122.4286,55.74,71,1,13.8,US
452,San Quintín,30.4833,-115.95,62.51,64,2,11.97,MX
453,Yulara,-25.2406,130.9889,69.8,28,0,5.75,AU
454,Sanary-sur-Mer,43.1178,5.8001,50.61,83,93,9.01,FR
455,Puerto Madero,14.7208,-92.4215,89.6,55,20,13.8,MX
456,Yumen,40.2833,97.2,22.26,63,100,13.6,CN
457,Rome,43.2128,-75.4557,40.53,87,90,4.61,US
458,Shelburne,44.0787,-80.2041,38.5,65,20,11.5,CA
459,Mapiri,-15.25,-68.1667,83.26,62,48,0.63,BO
460,Mehamn,71.0357,27.8492,29.35,76,100,7.27,NO
461,Kutum,14.2,24.6667,63.0,27,0,6.69,SD
462,Erzin,36.9559,36.2,55.99,68,0,3.0,TR
463,Guerrero Negro,27.9769,-114.0611,63.64,52,100,12.17,MX
464,Abu Samrah,35.3029,37.1841,50.63,51,0,4.29,SY
465,Tabory,58.5198,64.5495,-13.5,89,59,7.29,RU
466,Cândido Mendes,-1.4467,-45.7167,75.63,92,41,3.74,BR
467,Goya,-29.14,-59.2626,92.44,28,0,7.72,AR
468,Puerto Nariño,-3.7703,-70.3831,87.8,70,75,3.44,CO
469,Cabedelo,-6.9811,-34.8339,77.0,94,75,4.61,BR
470,Orlik,52.5178,99.825,-23.4,83,92,2.82,RU
471,Raja,8.4596,25.678,72.55,18,0,4.27,SS
472,Maksatikha,57.797,35.8825,28.76,99,94,6.22,RU
473,Manali,13.1667,80.2667,73.4,94,20,7.83,IN
474,Tual,-5.6667,132.75,83.93,75,99,9.69,ID
475,Sur,22.5667,59.5289,69.58,67,0,5.7,OM
476,Grand Gaube,-20.0064,57.6608,80.01,74,14,4.0,MU
477,Chapais,49.7834,-74.8492,28.4,74,90,9.22,CA
478,Turukhansk,65.8167,87.9833,-32.01,80,19,4.54,RU
479,Codrington,-38.2667,141.9667,57.06,75,70,2.46,AU
480,Kirovskiy,45.0917,133.5136,20.26,89,97,7.74,RU
481,Khanpur,28.6453,70.6567,55.18,35,0,2.8,PK
482,Volga,57.9516,38.3879,15.39,97,77,3.02,RU
483,San Luis,-33.295,-66.3356,87.39,30,36,10.11,AR
484,Warrnambool,-38.3833,142.4833,52.0,97,43,2.84,AU
485,Akdağmadeni,39.6603,35.8836,31.01,91,0,1.45,TR
486,Lodja,-3.4833,23.4333,73.9,79,58,0.56,CD
487,Fukuechō,32.6881,128.8419,55.31,57,100,15.5,JP
488,Qarqīn,37.4185,66.0436,40.55,60,0,6.06,AF
489,Buala,-8.145,159.5921,75.85,90,100,10.51,SB
490,Gorontalo,0.5412,123.0595,75.25,88,92,3.31,ID
491,Tautira,-17.7333,-149.15,84.09,70,75,9.22,PF
492,Moose Factory,51.2585,-80.6094,-2.2,60,1,10.36,CA
493,Itarema,-2.9248,-39.9167,79.29,79,66,10.54,BR
494,Esim,4.8699,-2.2405,79.21,87,52,6.58,GH
495,Ekhabi,53.5102,142.9671,4.68,94,100,13.18,RU
496,Burnie,-41.0667,145.9167,63.0,73,22,3.0,AU
497,Sakakah,29.9697,40.2064,57.2,24,40,9.22,SA
498,Ormara,25.2088,64.6357,70.45,36,0,14.03,PK
499,Peto,20.1333,-88.9167,90.61,33,0,8.86,MX
500,Sembakung,3.8167,117.25,78.8,94,75,5.75,ID
501,Marzuq,14.4,46.4667,63.3,69,0,3.69,YE
502,Poum,-20.2333,164.0167,79.92,75,99,10.65,NC
503,Saint-Jean-de-la-Ruelle,47.9113,1.8648,41.0,81,0,14.97,FR
504,Yatou,37.15,122.3833,39.92,86,20,5.39,CN
505,Ust-Kuyga,70.0167,135.6,-33.93,98,11,1.72,RU
506,Rocha,-34.4833,-54.3333,70.23,80,91,10.22,UY
508,Hasaki,35.7333,140.8333,27.09,74,20,4.61,JP
509,São Filipe,14.8961,-24.4956,69.49,71,0,17.0,CV
510,Mitsamiouli,-11.3847,43.2844,81.1,74,100,7.16,KM
511,Bouna,9.2667,-3.0,78.04,18,0,1.52,CI
512,Zorgo,12.2489,-0.6158,79.23,15,0,9.51,BF
513,Trairi,-3.2778,-39.2689,79.61,81,97,9.04,BR
514,Kirksville,40.1948,-92.5833,55.9,51,1,9.22,US
515,Dakar,14.6937,-17.4441,68.0,68,1,4.61,SN
516,Bang Saphan,11.2126,99.5117,69.49,90,21,2.73,TH
517,Pamekasan,-7.1568,113.4746,75.54,91,100,2.75,ID
518,Alexandria,31.2156,29.9553,60.8,67,40,10.36,EG
519,Wawa,9.9022,4.4192,82.22,16,3,2.82,NG
520,Abu Dhabi,24.4667,54.3667,67.23,64,20,9.22,AE
521,Ifakara,-8.1333,36.6833,72.59,92,100,2.39,TZ
522,Rosário do Sul,-30.2583,-54.9142,81.97,54,33,13.18,BR
523,Tateyama,34.9833,139.8667,36.32,55,20,8.05,JP
524,Yining,29.0361,114.5636,47.64,92,62,0.6,CN
525,Mae Sot,16.7167,98.5667,59.79,73,0,1.05,TH
526,Namatanai,-3.6667,152.4333,82.33,76,83,0.38,PG
527,Marfino,55.7028,37.3822,32.02,80,75,8.95,RU
528,Aksarka,66.5606,67.7975,-15.72,89,65,9.04,RU
529,Liverpool,53.4106,-2.9779,40.12,81,58,2.3,GB
530,Orbetello,42.4408,11.2196,46.58,81,31,3.44,IT
531,Mingyue,43.1069,128.9217,24.35,85,46,1.52,CN
532,Naze,28.3667,129.4833,62.6,94,75,33.38,JP
533,Kaniama,-7.5667,24.1833,66.7,92,98,1.95,CD
534,Bulgan,48.8125,103.5347,-0.56,77,4,1.63,MN
535,Tiksi,71.6872,128.8694,-27.62,86,69,2.89,RU
536,Itaueira,-7.6033,-43.0256,73.49,92,100,3.4,BR
537,Klyuchevskiy,53.5317,119.4519,-12.78,89,100,2.1,RU
538,Bumba,2.1833,22.4667,75.81,62,6,1.81,CD
539,Katobu,-4.9408,122.5276,76.44,88,100,6.87,ID
540,Gornoye Loo,43.7129,39.6049,39.65,81,75,5.48,RU
541,Henties Bay,-22.116,14.2845,64.99,87,12,5.01,NA
542,Compostela,7.6731,126.0889,73.17,90,93,1.59,PH
543,Meadow Lake,34.8014,-106.5436,60.62,9,1,21.85,US
544,Mayo,38.8876,-76.5119,51.66,76,1,4.61,US
545,Tuy Hoa,13.0833,109.3,73.36,93,67,2.91,VN
546,Upata,8.0086,-62.3989,76.37,71,64,8.57,VE
547,Oktyabr'skiy,54.4815,53.471,27.97,98,100,0.56,RU
548,Melenki,55.3343,41.6295,5.77,96,72,5.77,RU
549,Akranes,64.3218,-22.0749,40.26,75,20,24.16,IS
550,Baharly,38.4362,57.4316,41.72,55,2,5.88,TM
551,Lerik,38.7726,48.4128,33.8,86,40,3.4,AZ
552,Nicoya,10.1483,-85.452,89.6,45,40,25.32,CR
553,Rudnichnyy,59.617,52.4703,-7.29,91,24,5.35,RU
554,Yilan,24.757,121.753,64.0,99,10,4.12,TW
555,Pangnirtung,66.1451,-65.7125,-31.23,99,95,0.69,CA
556,Broome,42.2506,-75.833,43.12,70,20,12.66,US
557,Kinsale,51.7075,-8.5306,40.03,93,20,2.3,IE
558,Hofn,64.2539,-15.2082,43.79,82,100,32.39,IS
559,De Aar,-30.6497,24.0123,68.0,49,0,20.92,ZA
560,Hohhot,40.8106,111.6522,30.2,80,40,6.71,CN
561,Edineţ,48.1681,27.305,39.99,76,80,8.99,MD
562,Vestmannaeyjar,63.4427,-20.2734,43.86,76,100,33.55,IS
563,Muriwai Beach,-36.8167,174.45,70.02,79,54,8.01,NZ
565,Bilibino,68.0546,166.4372,-17.18,75,0,2.1,RU
